{
	"tiks": [
		{
			"lon": 39.87146585,
			"lat": 57.64162785,
			"desc": "ул. Зои Космодемьянской, 10-а",
			"phone": "8 4852 25-16-15",
			"url": "http://www.yaroslavl.vybory.izbirkom.ru/region/yaroslavl?action=show_komissia&region=76&sub_region=76&type=100&vrnorg=276200071145&vrnkomis=476402408737",
			"name": "Ярославского района"
		}
	],
	"uiks": [
		{
			"lon": 39.74806915,
			"lat": 57.4961718,
			"obj": "Центр детского творчества «Ступеньки»",
			"addr": "п. Красные Ткачи, ул. Пушкина, д. 8а",
			"phone": "43-49-21",
			"count": 1732,
			"number": 882
		},
		{
			"lon": 39.74826915,
			"lat": 57.4963718,
			"obj": "Центр детского творчества «Ступеньки»",
			"addr": "п. Красные Ткачи, ул. Пушкина, д. 8а",
			"phone": "43-49-21",
			"count": 1606,
			"number": 883
		},
		{
			"lon": 39.73708725,
			"lat": 57.52894795,
			"obj": "Дом культуры",
			"addr": "п. Дубки",
			"phone": "43-01-54",
			"count": 2825,
			"number": 884
		},
		{
			"lon": 39.76231535,
			"lat": 57.5087449,
			"obj": "Карабихская основная общеобразовательная школа",
			"addr": "д. Карабиха",
			"phone": "43-42-87",
			"count": 1033,
			"number": 885
		},
		{
			"lon": 39.7256153,
			"lat": 57.4718993,
			"obj": "Библиотека",
			"addr": "д. Кормилицино, ул. Лесная, д. 41-а",
			"phone": "8-915-972-80-49",
			"count": 1476,
			"number": 886
		},
		{
			"lon": 39.8343387,
			"lat": 57.5581397,
			"obj": "Культурно-спортивный комплекс",
			"addr": "п. Нагорный, ул. Школьная, д. 1-а",
			"phone": "94-43-48",
			"count": 1306,
			"number": 887
		},
		{
			"lon": 39.9631586,
			"lat": 57.4880036,
			"obj": "Дом культуры",
			"addr": "д. Ананьино",
			"phone": "43-17-29",
			"count": 490,
			"number": 888
		}
	]
}
